{"postalcodes":[{"adminCode2":"708","adminCode3":"70805","adminName3":"Breitenwang","adminCode1":"07","adminName2":"Politischer Bezirk Reutte","lng":10.7333333,"countryCode":"AT","postalcode":"6600","adminName1":"Tirol","placeName":"Breitenwang","lat":47.4833333},{"adminCode2":"708","adminCode3":"70806","adminName3":"Ehenbichl","adminCode1":"07","adminName2":"Politischer Bezirk Reutte","lng":10.7,"countryCode":"AT","postalcode":"6600","adminName1":"Tirol","placeName":"Ehenbichl","lat":47.4666667},{"adminCode2":"708","adminCode3":"70820","adminName3":"Lechaschau","adminCode1":"07","adminName2":"Politischer Bezirk Reutte","lng":10.706520080566406,"countryCode":"AT","postalcode":"6600","adminName1":"Tirol","placeName":"Lechaschau","lat":47.488035007826824},{"adminCode2":"708","adminCode3":"70822","adminName3":"Musau","adminCode1":"07","adminName2":"Politischer Bezirk Reutte","lng":10.6666667,"countryCode":"AT","postalcode":"6600","adminName1":"Tirol","placeName":"Musau","lat":47.5333333},{"adminCode2":"708","adminCode3":"70826","adminName3":"Pflach","adminCode1":"07","adminName2":"Politischer Bezirk Reutte","lng":10.7,"countryCode":"AT","postalcode":"6600","adminName1":"Tirol","placeName":"Oberletzen","lat":47.5166667},{"adminCode2":"708","adminCode3":"70827","adminName3":"Pinswang","adminCode1":"07","adminName2":"Politischer Bezirk Reutte","lng":10.6833333,"countryCode":"AT","postalcode":"6600","adminName1":"Tirol","placeName":"Oberpinswang","lat":47.5333333},{"adminCode2":"708","adminCode3":"70826","adminName3":"Pflach","adminCode1":"07","adminName2":"Politischer Bezirk Reutte","lng":10.7166667,"countryCode":"AT","postalcode":"6600","adminName1":"Tirol","placeName":"Pflach","lat":47.5166667},{"adminCode2":"708","adminCode3":"70828","adminName3":"Reutte","adminCode1":"07","adminName2":"Politischer Bezirk Reutte","lng":10.7166667,"countryCode":"AT","postalcode":"6600","adminName1":"Tirol","placeName":"Reutte","lat":47.4833333},{"adminCode2":"708","adminCode3":"70826","adminName3":"Pflach","adminCode1":"07","adminName2":"Politischer Bezirk Reutte","lng":10.7,"countryCode":"AT","postalcode":"6600","adminName1":"Tirol","placeName":"Unterletzen","lat":47.5166667},{"adminCode2":"708","adminCode3":"70827","adminName3":"Pinswang","adminCode1":"07","adminName2":"Politischer Bezirk Reutte","lng":10.694591826537053,"countryCode":"AT","postalcode":"6600","adminName1":"Tirol","placeName":"Unterpinswang","lat":47.541181374667914}]}